{
  "type": "FeatureCollection",
  "name": "mountains_hiking_indonesia_full",
  "features": [
    // SUMATERA
    {"type":"Feature","properties":{"name":"Kerinci","type":"kerinci","elevation_m":3805,"link":"https://montamap.com/kerinci","island":"Sumatra","province":"Jambi","region":"Sumatra"},"geometry":{"type":"Point","coordinates":[101.264,-1.697]}},
    {"type":"Feature","properties":{"name":"Marapi","type":"marapi","elevation_m":2891,"link":"https://montamap.com/marapi","island":"Sumatra","province":"Sumatera Barat","region":"Sumatra"},"geometry":{"type":"Point","coordinates":[100.473,-0.381]}},
    {"type":"Feature","properties":{"name":"Talang","type":"talang","elevation_m":2597,"link":"https://montamap.com/talang","island":"Sumatra","province":"Sumatera Barat","region":"Sumatra"},"geometry":{"type":"Point","coordinates":[100.679,-0.979]}},
    {"type":"Feature","properties":{"name":"Sibayak","type":"sibayak","elevation_m":2212,"link":"https://montamap.com/sibayak","island":"Sumatra","province":"Sumatera Utara","region":"Sumatra"},"geometry":{"type":"Point","coordinates":[98.523,3.225]}},
    {"type":"Feature","properties":{"name":"Sinabung","type":"sinabung","elevation_m":2460,"link":"https://montamap.com/sinabung","island":"Sumatra","province":"Sumatera Utara","region":"Sumatra"},"geometry":{"type":"Point","coordinates":[98.392,3.17]}},
    {"type":"Feature","properties":{"name":"Peuet Sague","type":"peuet-sague","elevation_m":2785,"link":"https://montamap.com/peuet-sague","island":"Sumatra","province":"Aceh","region":"Sumatra"},"geometry":{"type":"Point","coordinates":[96.185,4.914]}},
    {"type":"Feature","properties":{"name":"Seulawah Agam","type":"seulawah-agam","elevation_m":1810,"link":"https://montamap.com/seulawah-agam","island":"Sumatra","province":"Aceh","region":"Sumatra"},"geometry":{"type":"Point","coordinates":[95.658,5.448]}},
    {"type":"Feature","properties":{"name":"Dempo","type":"dempo","elevation_m":3159,"link":"https://montamap.com/dempo","island":"Sumatra","province":"Sumatera Selatan","region":"Sumatra"},"geometry":{"type":"Point","coordinates":[103.126,-4.032]}},
    {"type":"Feature","properties":{"name":"Tanggamus","type":"tanggamus","elevation_m":2102,"link":"https://montamap.com/tanggamus","island":"Sumatra","province":"Lampung","region":"Sumatra"},"geometry":{"type":"Point","coordinates":[104.731,-5.555]}},
    {"type":"Feature","properties":{"name":"Pesagi","type":"pesagi","elevation_m":2262,"link":"https://montamap.com/pesagi","island":"Sumatra","province":"Lampung","region":"Sumatra"},"geometry":{"type":"Point","coordinates":[104.049,-5.016]}},
    {"type":"Feature","properties":{"name":"Bukit Barisan","type":"bukit-barisan","elevation_m":1949,"link":"https://montamap.com/bukit-barisan","island":"Sumatra","province":"Sumatera Utara","region":"Sumatra"},"geometry":{"type":"Point","coordinates":[99.005,1.378]}},
    {"type":"Feature","properties":{"name":"Sibualbuali","type":"sibualbuali","elevation_m":1819,"link":"https://montamap.com/sibualbuali","island":"Sumatra","province":"Sumatera Utara","region":"Sumatra"},"geometry":{"type":"Point","coordinates":[99.273,1.466]}},
    {"type":"Feature","properties":{"name":"Sorik Marapi","type":"sorik-marapi","elevation_m":2145,"link":"https://montamap.com/sorik-marapi","island":"Sumatra","province":"Sumatera Utara","region":"Sumatra"},"geometry":{"type":"Point","coordinates":[99.535,0.96]}},
    {"type":"Feature","properties":{"name":"Bukit Daun","type":"bukit-daun","elevation_m":2467,"link":"https://montamap.com/bukit-daun","island":"Sumatra","province":"Bengkulu","region":"Sumatra"},"geometry":{"type":"Point","coordinates":[102.373,-3.436]}},
    {"type":"Feature","properties":{"name":"Kaba","type":"kaba","elevation_m":1952,"link":"https://montamap.com/kaba","island":"Sumatra","province":"Bengkulu","region":"Sumatra"},"geometry":{"type":"Point","coordinates":[102.617,-3.526]}},
    {"type":"Feature","properties":{"name":"Bukit Raya","type":"bukit-raya","elevation_m":2278,"link":"https://montamap.com/bukit-raya","island":"Kalimantan","province":"Kalimantan Barat","region":"Kalimantan"},"geometry":{"type":"Point","coordinates":[112.488,-0.596]}},
    {"type":"Feature","properties":{"name":"Bukit Baka","type":"bukit-baka","elevation_m":1622,"link":"https://montamap.com/bukit-baka","island":"Kalimantan","province":"Kalimantan Barat","region":"Kalimantan"},"geometry":{"type":"Point","coordinates":[112.495,-0.85]}},

    // JAWA BARAT
    {"type":"Feature","properties":{"name":"Ciremai","type":"ciremai","elevation_m":3078,"link":"https://montamap.com/ciremai","island":"Jawa","province":"Jawa Barat","region":"Jawa Barat"},"geometry":{"type":"Point","coordinates":[108.406,-6.892]}},
    {"type":"Feature","properties":{"name":"Pangrango","type":"pangrango","elevation_m":3019,"link":"https://montamap.com/pangrango","island":"Jawa","province":"Jawa Barat","region":"Jawa Barat"},"geometry":{"type":"Point","coordinates":[106.985,-6.744]}},
    {"type":"Feature","properties":{"name":"Gede","type":"gede","elevation_m":2958,"link":"https://montamap.com/gede","island":"Jawa","province":"Jawa Barat","region":"Jawa Barat"},"geometry":{"type":"Point","coordinates":[107.737,-6.778]}},
    {"type":"Feature","properties":{"name":"Papandayan","type":"papandayan","elevation_m":2665,"link":"https://montamap.com/papandayan","island":"Jawa","province":"Jawa Barat","region":"Jawa Barat"},"geometry":{"type":"Point","coordinates":[107.728,-7.327]}},
    {"type":"Feature","properties":{"name":"Tangkuban Perahu","type":"tangkuban-perahu","elevation_m":2084,"link":"https://montamap.com/tangkuban-perahu","island":"Jawa","province":"Jawa Barat","region":"Jawa Barat"},"geometry":{"type":"Point","coordinates":[107.601,-6.759]}},
    {"type":"Feature","properties":{"name":"Salak","type":"salak","elevation_m":2211,"link":"https://montamap.com/salak","island":"Jawa","province":"Jawa Barat","region":"Jawa Barat"},"geometry":{"type":"Point","coordinates":[106.738,-6.714]}},
    {"type":"Feature","properties":{"name":"Galunggung","type":"galunggung","elevation_m":2168,"link":"https://montamap.com/galunggung","island":"Jawa","province":"Jawa Barat","region":"Jawa Barat"},"geometry":{"type":"Point","coordinates":[108.059,-7.25]}},
    {"type":"Feature","properties":{"name":"Cikuray","type":"cikuray","elevation_m":2821,"link":"https://montamap.com/cikuray","island":"Jawa","province":"Jawa Barat","region":"Jawa Barat"},"geometry":{"type":"Point","coordinates":[107.828,-7.327]}},
    {"type":"Feature","properties":{"name":"Patuha","type":"patuha","elevation_m":2434,"link":"https://montamap.com/patuha","island":"Jawa","province":"Jawa Barat","region":"Jawa Barat"},"geometry":{"type":"Point","coordinates":[107.402,-7.166]}},
    {"type":"Feature","properties":{"name":"Manglayang","type":"manglayang","elevation_m":1818,"link":"https://montamap.com/manglayang","island":"Jawa","province":"Jawa Barat","region":"Jawa Barat"},"geometry":{"type":"Point","coordinates":[107.751,-6.863]}},
    {"type":"Feature","properties":{"name":"Burangrang","type":"burangrang","elevation_m":2050,"link":"https://montamap.com/burangrang","island":"Jawa","province":"Jawa Barat","region":"Jawa Barat"},"geometry":{"type":"Point","coordinates":[107.541,-6.718]}},

    // JAWA TENGAH
    {"type":"Feature","properties":{"name":"Slamet","type":"slamet","elevation_m":3428,"link":"https://montamap.com/slamet","island":"Jawa","province":"Jawa Tengah","region":"Jawa Tengah"},"geometry":{"type":"Point","coordinates":[109.208,-7.242]}},
    {"type":"Feature","properties":{"name":"Sumbing","type":"sumbing","elevation_m":3371,"link":"https://montamap.com/sumbing","island":"Jawa","province":"Jawa Tengah","region":"Jawa Tengah"},"geometry":{"type":"Point","coordinates":[109.904,-7.386]}},
    {"type":"Feature","properties":{"name":"Sindoro","type":"sindoro","elevation_m":3136,"link":"https://montamap.com/sindoro","island":"Jawa","province":"Jawa Tengah","region":"Jawa Tengah"},"geometry":{"type":"Point","coordinates":[109.995,-7.307]}},
    {"type":"Feature","properties":{"name":"Merbabu","type":"merbabu","elevation_m":3145,"link":"https://montamap.com/merbabu","island":"Jawa","province":"Jawa Tengah","region":"Jawa Tengah"},"geometry":{"type":"Point","coordinates":[110.438,-7.455]}},
    {"type":"Feature","properties":{"name":"Merapi","type":"merapi","elevation_m":2930,"link":"https://montamap.com/merapi","island":"Jawa","province":"Jawa Tengah/DI Yogyakarta","region":"Jawa Tengah"},"geometry":{"type":"Point","coordinates":[110.446,-7.54]}},
    {"type":"Feature","properties":{"name":"Lawu","type":"lawu","elevation_m":3265,"link":"https://montamap.com/lawu","island":"Jawa","province":"Jawa Tengah/Jawa Timur","region":"Jawa Tengah"},"geometry":{"type":"Point","coordinates":[111.188,-7.652]}},
    {"type":"Feature","properties":{"name":"Prau","type":"prau","elevation_m":2565,"link":"https://montamap.com/prau","island":"Jawa","province":"Jawa Tengah","region":"Jawa Tengah"},"geometry":{"type":"Point","coordinates":[109.927,-7.196]}},
    {"type":"Feature","properties":{"name":"Andong","type":"andong","elevation_m":1726,"link":"https://montamap.com/andong","island":"Jawa","province":"Jawa Tengah","region":"Jawa Tengah"},"geometry":{"type":"Point","coordinates":[110.346,-7.366]}},
    {"type":"Feature","properties":{"name":"Ungaran","type":"ungaran","elevation_m":2050,"link":"https://montamap.com/ungaran","island":"Jawa","province":"Jawa Tengah","region":"Jawa Tengah"},"geometry":{"type":"Point","coordinates":[110.356,-7.171]}},
    {"type":"Feature","properties":{"name":"Telomoyo","type":"telomoyo","elevation_m":1894,"link":"https://montamap.com/telomoyo","island":"Jawa","province":"Jawa Tengah","region":"Jawa Tengah"},"geometry":{"type":"Point","coordinates":[110.382,-7.272]}},
    {"type":"Feature","properties":{"name":"Lanang","type":"lanang","elevation_m":1351,"link":"https://montamap.com/lanang","island":"Jawa","province":"Jawa Tengah","region":"Jawa Tengah"},"geometry":{"type":"Point","coordinates":[109.945,-7.422]}},

    // JAWA TIMUR
    {"type":"Feature","properties":{"name":"Semeru","type":"semeru","elevation_m":3676,"link":"https://montamap.com/semeru","island":"Jawa","province":"Jawa Timur","region":"Jawa Timur"},"geometry":{"type":"Point","coordinates":[112.922,-8.108]}},
    {"type":"Feature","properties":{"name":"Arjuno","type":"arjuno","elevation_m":3339,"link":"https://montamap.com/arjuno","island":"Jawa","province":"Jawa Timur","region":"Jawa Timur"},"geometry":{"type":"Point","coordinates":[112.578,-7.744]}},
    {"type":"Feature","properties":{"name":"Welirang","type":"welirang","elevation_m":3156,"link":"https://montamap.com/welirang","island":"Jawa","province":"Jawa Timur","region":"Jawa Timur"},"geometry":{"type":"Point","coordinates":[112.566,-7.776]}},
    {"type":"Feature","properties":{"name":"Penanggungan","type":"penanggungan","elevation_m":1653,"link":"https://montamap.com/penanggungan","island":"Jawa","province":"Jawa Timur","region":"Jawa Timur"},"geometry":{"type":"Point","coordinates":[112.591,-7.614]}},
    {"type":"Feature","properties":{"name":"Bromo","type":"bromo","elevation_m":2329,"link":"https://montamap.com/bromo","island":"Jawa","province":"Jawa Timur","region":"Jawa Timur"},"geometry":{"type":"Point","coordinates":[112.946,-7.942]}},
    {"type":"Feature","properties":{"name":"Raung","type":"raung","elevation_m":3344,"link":"https://montamap.com/raung","island":"Jawa","province":"Jawa Timur","region":"Jawa Timur"},"geometry":{"type":"Point","coordinates":[114.042,-8.125]}},
    {"type":"Feature","properties":{"name":"Ijen","type":"ijen","elevation_m":2799,"link":"https://montamap.com/ijen","island":"Jawa","province":"Jawa Timur","region":"Jawa Timur"},"geometry":{"type":"Point","coordinates":[114.242,-8.058]}},
    {"type":"Feature","properties":{"name":"Argopuro","type":"argopuro","elevation_m":3088,"link":"https://montamap.com/argopuro","island":"Jawa","province":"Jawa Timur","region":"Jawa Timur"},"geometry":{"type":"Point","coordinates":[113.616,-7.977]}},
    {"type":"Feature","properties":{"name":"Lamongan","type":"lamongan","elevation_m":1651,"link":"https://montamap.com/lamongan","island":"Jawa","province":"Jawa Timur","region":"Jawa Timur"},"geometry":{"type":"Point","coordinates":[113.342,-7.974]}},
    {"type":"Feature","properties":{"name":"Baluran","type":"baluran","elevation_m":1247,"link":"https://montamap.com/baluran","island":"Jawa","province":"Jawa Timur","region":"Jawa Timur"},"geometry":{"type":"Point","coordinates":[114.365,-7.845]}},
    {"type":"Feature","properties":{"name":"Anjasmoro","type":"anjasmoro","elevation_m":2277,"link":"https://montamap.com/anjasmoro","island":"Jawa","province":"Jawa Timur","region":"Jawa Timur"},"geometry":{"type":"Point","coordinates":[112.359,-7.736]}},
    {"type":"Feature","properties":{"name":"Panderman","type":"panderman","elevation_m":2045,"link":"https://montamap.com/panderman","island":"Jawa","province":"Jawa Timur","region":"Jawa Timur"},"geometry":{"type":"Point","coordinates":[112.516,-7.859]}},
    {"type":"Feature","properties":{"name":"Beser","type":"beser","elevation_m":1363,"link":"https://montamap.com/beser","island":"Jawa","province":"Jawa Timur","region":"Jawa Timur"},"geometry":{"type":"Point","coordinates":[112.248,-7.716]}},

    // BALI
    {"type":"Feature","properties":{"name":"Agung","type":"agung","elevation_m":3031,"link":"https://montamap.com/agung","island":"Bali","province":"Bali","region":"Bali"},"geometry":{"type":"Point","coordinates":[115.508,-8.342]}},
    {"type":"Feature","properties":{"name":"Abang","type":"abang","elevation_m":2152,"link":"https://montamap.com/abang","island":"Bali","province":"Bali","region":"Bali"},"geometry":{"type":"Point","coordinates":[115.439,-8.282]}},
    {"type":"Feature","properties":{"name":"Batukaru","type":"batukaru","elevation_m":2276,"link":"https://montamap.com/batukaru","island":"Bali","province":"Bali","region":"Bali"},"geometry":{"type":"Point","coordinates":[115.102,-8.374]}},
    {"type":"Feature","properties":{"name":"Batur","type":"batur","elevation_m":1717,"link":"https://montamap.com/batur","island":"Bali","province":"Bali","region":"Bali"},"geometry":{"type":"Point","coordinates":[115.375,-8.239]}},
    {"type":"Feature","properties":{"name":"Lesung","type":"lesung","elevation_m":1865,"link":"https://montamap.com/lesung","island":"Bali","province":"Bali","region":"Bali"},"geometry":{"type":"Point","coordinates":[115.121,-8.289]}},
    {"type":"Feature","properties":{"name":"Pohen","type":"pohen","elevation_m":2063,"link":"https://montamap.com/pohen","island":"Bali","province":"Bali","region":"Bali"},"geometry":{"type":"Point","coordinates":[115.098,-8.25]}},

    // NTB
    {"type":"Feature","properties":{"name":"Rinjani","type":"rinjani","elevation_m":3726,"link":"https://montamap.com/rinjani","island":"Lombok","province":"Nusa Tenggara Barat","region":"Lombok"},"geometry":{"type":"Point","coordinates":[116.457,-8.411]}},
    {"type":"Feature","properties":{"name":"Sanggara","type":"sanggara","elevation_m":2800,"link":"https://montamap.com/sanggara","island":"Lombok","province":"Nusa Tenggara Barat","region":"Lombok"},"geometry":{"type":"Point","coordinates":[116.367,-8.247]}},
    {"type":"Feature","properties":{"name":"Pengsong","type":"pengsong","elevation_m":360,"link":"https://montamap.com/pengsong","island":"Lombok","province":"Nusa Tenggara Barat","region":"Lombok"},"geometry":{"type":"Point","coordinates":[116.135,-8.653]}},
    {"type":"Feature","properties":{"name":"Tambora","type":"tambora","elevation_m":2850,"link":"https://montamap.com/tambora","island":"Sumbawa","province":"Nusa Tenggara Barat","region":"Sumbawa"},"geometry":{"type":"Point","coordinates":[117.97,-8.237]}},

    // PAPUA
    {"type":"Feature","properties":{"name":"Carstensz Pyramid","type":"carstensz-pyramid","elevation_m":4884,"link":"https://montamap.com/carstensz-pyramid","island":"Papua","province":"Papua Tengah","region":"Papua"},"geometry":{"type":"Point","coordinates":[137.185,-4.085]}},
    {"type":"Feature","properties":{"name":"Trikora","type":"trikora","elevation_m":4730,"link":"https://montamap.com/trikora","island":"Papua","province":"Papua Pegunungan","region":"Papua"},"geometry":{"type":"Point","coordinates":[138.482,-4.218]}},
    {"type":"Feature","properties":{"name":"Mandala","type":"mandala","elevation_m":4700,"link":"https://montamap.com/mandala","island":"Papua","province":"Papua Pegunungan","region":"Papua"},"geometry":{"type":"Point","coordinates":[139.833,-4.783]}},
    {"type":"Feature","properties":{"name":"Yamin","type":"yamin","elevation_m":4595,"link":"https://montamap.com/yamin","island":"Papua","province":"Papua Pegunungan","region":"Papua"},"geometry":{"type":"Point","coordinates":[140.138,-4.839]}}
  ]
}
